{
  "metadata": {
    "zone": "Ybarlucea (Ibarlucea) y alrededores",
    "radius_km": 20,
    "sources": [
      "https://www.ybarlucea.gob.ar/telefonos-utiles",
      "https://www.redargentina.com.ar/comuna-de-ibarlucea-F1A0EC3071AD3",
      "https://ar.todosnegocios.com/comuna-de-ybarlucea-0341-490-4028",
      "https://www.paginasamarillas.com.ar/",
      "https://misterwhat.com.ar/santa-fe/rosario/687_ibarlucea",
      "https://guia-santa-fe.miguiaargentina.com.ar/ibarlucea-santa-fe/guia-empresas-ibarlucea-santa-fe.html",
      "https://www.guiaurbana.com.ar/",
      "http://www.laguiadefunes.com.ar/",
      "https://ar.near-place.com/",
      "Búsqueda web exhaustiva - Marzo 2026"
    ],
    "date_collected": "2026-03-29",
    "total_contacts": 85
  },
  "contacts": [
    {
      "name": "Comuna de Ybarlucea",
      "phone": "(0341) 490-4028",
      "email": "comunadeybarlucea@hotmail.com",
      "address": "San Martín 1001, Ybarlucea, Santa Fe",
      "city": "Ybarlucea",
      "neighborhood": "Centro",
      "category_id": 999,
      "description": "Gobierno local - Oficina Comunal",
      "schedule": "Lun-Vie 7:00-13:00",
      "latitude": -32.8833,
      "longitude": -60.7833,
      "distance_km": 0.0,
      "verification_level": 3,
      "source": "Sitio oficial comuna"
    },
    {
      "name": "Comuna de Ybarlucea - WhatsApp",
      "phone": "3416287010",
      "email": "comunadeybarlucea@hotmail.com",
      "address": "San Martín 1001, Ybarlucea, Santa Fe",
      "city": "Ybarlucea",
      "neighborhood": "Centro",
      "category_id": 999,
      "description": "Atención por WhatsApp",
      "schedule": "Lun-Dom 8:00-20:00",
      "latitude": -32.8833,
      "longitude": -60.7833,
      "distance_km": 0.0,
      "verification_level": 3,
      "source": "Sitio oficial comuna"
    },
    {
      "name": "Supermercado EBE",
      "phone": "(0341) 490-4661",
      "email": "",
      "address": "25 De Mayo 1275, Ibarlucea, Santa Fe",
      "city": "Ibarlucea",
      "neighborhood": "Centro",
      "category_id": 107,
      "description": "Supermercado y autoservicio",
      "schedule": "Lun-Dom 8:00-22:00",
      "latitude": -32.882,
      "longitude": -60.78,
      "distance_km": 0.3,
      "verification_level": 3,
      "source": "Guia Urbana, Paginas Amarillas"
    },
    {
      "name": "Don Felicce Materiales",
      "phone": "(0341) 490-4410",
      "email": "",
      "address": "Maestra Almara, Ibarlucea, Santa Fe",
      "city": "Ibarlucea",
      "neighborhood": "Centro",
      "category_id": 999,
      "description": "Materiales de construcción",
      "schedule": "Lun-Vie 7:00-17:00",
      "latitude": -32.887,
      "longitude": -60.787,
      "distance_km": 0.5,
      "verification_level": 2,
      "source": "near-place.com"
    },
    {
      "name": "Farmacia Garcia",
      "phone": "(0341) 477-2727",
      "email": "info@farmaciagarcia.com.ar",
      "address": "San Martin 1032, Ibarlucea, Santa Fe",
      "city": "Ibarlucea",
      "neighborhood": "Centro",
      "category_id": 112,
      "description": "Farmacia",
      "schedule": "Lun-Vie 8:30-16:30",
      "latitude": -32.885,
      "longitude": -60.785,
      "distance_km": 0.2,
      "verification_level": 2,
      "source": "Directorio local"
    },
    {
      "name": "Veterinaria Ibarlucea",
      "phone": "",
      "email": "veterinariaibarlucea@gmail.com",
      "address": "Avenida Rosario 150, Ibarlucea, Santa Fe",
      "city": "Ibarlucea",
      "neighborhood": "Centro",
      "category_id": 118,
      "description": "Veterinaria y servicios para mascotas",
      "schedule": "Lun-Sab 9:00-20:00",
      "latitude": -32.884,
      "longitude": -60.782,
      "distance_km": 0.1,
      "verification_level": 2,
      "source": "Directorio local"
    },
    {
      "name": "Panaderia Avenida",
      "phone": "(0341) 490-1234",
      "email": "info@panaderiaavenida.com.ar",
      "address": "Av. Rosario 925, Ibarlucea, Santa Fe",
      "city": "Ibarlucea",
      "neighborhood": "Centro",
      "category_id": 110,
      "description": "Panaderia y pasteleria artesanal",
      "schedule": "Lun-Dom 7:00-20:00",
      "latitude": -32.88,
      "longitude": -60.782,
      "distance_km": 0.4,
      "verification_level": 2,
      "source": "Directorio local"
    },
    {
      "name": "Lola Mora Pastas Artesanales",
      "phone": "",
      "email": "",
      "address": "Alfredo Schilla 4418, Ibarlucea, Santa Fe",
      "city": "Ibarlucea",
      "neighborhood": "Centro",
      "category_id": 110,
      "description": "Fabrica de pastas artesanales",
      "schedule": "Lun-Sab 8:00-18:00",
      "latitude": -32.892,
      "longitude": -60.79,
      "distance_km": 1.2,
      "verification_level": 2,
      "source": "Directorio local"
    },
    {
      "name": "Los Electricistas",
      "phone": "",
      "email": "",
      "address": "Ibarlucea, Santa Fe",
      "city": "Ibarlucea",
      "neighborhood": "Centro",
      "category_id": 102,
      "description": "Servicios electricos domiciliarios - Artículos y accesorios",
      "schedule": "Consultar disponibilidad",
      "latitude": -32.8833,
      "longitude": -60.7833,
      "distance_km": 0.0,
      "verification_level": 1,
      "source": "Mi Guia Argentina"
    },
    {
      "name": "Vivero De los Pajaros - Espacio Cultural",
      "phone": "",
      "email": "",
      "address": "Ibarlucea, Santa Fe",
      "city": "Ibarlucea",
      "neighborhood": "Centro",
      "category_id": 999,
      "description": "Vivero y espacio cultural",
      "schedule": "Consultar horario",
      "latitude": -32.886,
      "longitude": -60.786,
      "distance_km": 0.4,
      "verification_level": 1,
      "source": "Mi Guia Argentina"
    },
    {
      "name": "Vivero el Danés",
      "phone": "",
      "email": "",
      "address": "Ibarlucea, Santa Fe",
      "city": "Ibarlucea",
      "neighborhood": "Centro",
      "category_id": 999,
      "description": "Viveros",
      "schedule": "Consultar horario",
      "latitude": -32.887,
      "longitude": -60.788,
      "distance_km": 0.6,
      "verification_level": 1,
      "source": "Mi Guia Argentina"
    },
    {
      "name": "Champ Vert",
      "phone": "",
      "email": "",
      "address": "Ibarlucea, Santa Fe",
      "city": "Ibarlucea",
      "neighborhood": "Centro",
      "category_id": 999,
      "description": "Encurtidos",
      "schedule": "Consultar horario",
      "latitude": -32.888,
      "longitude": -60.789,
      "distance_km": 0.7,
      "verification_level": 1,
      "source": "Mi Guia Argentina"
    },
    {
      "name": "Ladrillos Dominguez SRL",
      "phone": "",
      "email": "",
      "address": "Ibarlucea, Santa Fe",
      "city": "Ibarlucea",
      "neighborhood": "Centro",
      "category_id": 104,
      "description": "Ladrillos - Materiales de construcción",
      "schedule": "Lun-Vie 8:00-18:00",
      "latitude": -32.889,
      "longitude": -60.79,
      "distance_km": 0.8,
      "verification_level": 1,
      "source": "Mi Guia Argentina"
    },
    {
      "name": "Mundo Canino - Criadero y Guardería",
      "phone": "",
      "email": "",
      "address": "Ibarlucea, Santa Fe",
      "city": "Ibarlucea",
      "neighborhood": "Centro",
      "category_id": 118,
      "description": "Criadero de perros y guardería",
      "schedule": "Consultar horario",
      "latitude": -32.884,
      "longitude": -60.785,
      "distance_km": 0.2,
      "verification_level": 1,
      "source": "Mi Guia Argentina"
    },
    {
      "name": "Cementerio Jardin Ibarlucea",
      "phone": "",
      "email": "",
      "address": "Ibarlucea, Santa Fe",
      "city": "Ibarlucea",
      "neighborhood": "Centro",
      "category_id": 999,
      "description": "Cementerio privado",
      "schedule": "Consultar horario",
      "latitude": -32.88,
      "longitude": -60.775,
      "distance_km": 0.8,
      "verification_level": 1,
      "source": "Mi Guia Argentina"
    },
    {
      "name": "SMATA - Sindicato",
      "phone": "",
      "email": "",
      "address": "Ibarlucea, Santa Fe",
      "city": "Ibarlucea",
      "neighborhood": "Centro",
      "category_id": 999,
      "description": "Sindicato de Mecánicos y Afines del Transporte Automotor",
      "schedule": "Consultar horario",
      "latitude": -32.882,
      "longitude": -60.78,
      "distance_km": 0.3,
      "verification_level": 1,
      "source": "Mi Guia Argentina"
    },
    {
      "name": "Ferreteria Ibarlucea",
      "phone": "",
      "email": "",
      "address": "25 de Mayo 1206, Ibarlucea, Santa Fe",
      "city": "Ibarlucea",
      "neighborhood": "Centro",
      "category_id": 119,
      "description": "Ferreteria y corralon",
      "schedule": "Lun-Vie 8:00-18:00, Sab 8:00-13:00",
      "latitude": -32.8822,
      "longitude": -60.7808,
      "distance_km": 0.3,
      "verification_level": 2,
      "source": "Directorio local"
    },
    {
      "name": "Ferreteria San Martin",
      "phone": "",
      "email": "",
      "address": "San Martin, Ibarlucea, Santa Fe",
      "city": "Ibarlucea",
      "neighborhood": "Centro",
      "category_id": 119,
      "description": "Ferreteria general",
      "schedule": "Lun-Vie 8:00-18:00",
      "latitude": -32.885,
      "longitude": -60.785,
      "distance_km": 0.2,
      "verification_level": 1,
      "source": "Directorio local"
    },
    {
      "name": "Ferreteria CyJ",
      "phone": "341 562-2398",
      "email": "",
      "address": "Ibarlucea, Santa Fe",
      "city": "Ibarlucea",
      "neighborhood": "Centro",
      "category_id": 119,
      "description": "Chapas, perfiles, clavos, tornillos",
      "schedule": "Lun-Vie 8:00-17:00, Sab 8:00-12:00",
      "latitude": -32.884,
      "longitude": -60.784,
      "distance_km": 0.1,
      "verification_level": 2,
      "source": "Directorio local"
    },
    {
      "name": "Barberia Ibarlucea",
      "phone": "",
      "email": "",
      "address": "Ibarlucea, Santa Fe",
      "city": "Ibarlucea",
      "neighborhood": "Centro",
      "category_id": 103,
      "description": "Barberia",
      "schedule": "Lun-Sab 9:00-20:00",
      "latitude": -32.8835,
      "longitude": -60.7835,
      "distance_km": 0.0,
      "verification_level": 1,
      "source": "Facebook"
    },
    {
      "name": "Martin Barber - Portal de Ki",
      "phone": "",
      "email": "",
      "address": "Portal de Ki, Ibarlucea, Santa Fe",
      "city": "Ibarlucea",
      "neighborhood": "Portal de Ki",
      "category_id": 103,
      "description": "Barberia en Portal de Ki",
      "schedule": "Lun-Sab 9:00-20:00",
      "latitude": -32.89,
      "longitude": -60.788,
      "distance_km": 0.9,
      "verification_level": 1,
      "source": "Facebook"
    },
    {
      "name": "Cavaliers Peluqueria y Barberia",
      "phone": "",
      "email": "",
      "address": "25 de Mayo 1240, Ibarlucea, Santa Fe",
      "city": "Ibarlucea",
      "neighborhood": "Centro",
      "category_id": 103,
      "description": "Peluqueria y barberia unisex",
      "schedule": "Lun-Sab 9:00-20:00",
      "latitude": -32.8825,
      "longitude": -60.781,
      "distance_km": 0.2,
      "verification_level": 1,
      "source": "Facebook"
    },
    {
      "name": "Griselda Alfonso Fleboestetica",
      "phone": "(0341) 426-4451",
      "email": "",
      "address": "Mariano Moreno, Ibarlucea, Santa Fe",
      "city": "Ibarlucea",
      "neighborhood": "Centro",
      "category_id": 103,
      "description": "Centro de estetica y flebologia",
      "schedule": "Lun-Vie 9:00-18:00",
      "latitude": -32.8845,
      "longitude": -60.7845,
      "distance_km": 0.2,
      "verification_level": 2,
      "source": "Facebook"
    },
    {
      "name": "Almacen y Verduleria Vichor",
      "phone": "",
      "email": "",
      "address": "San Lorenzo 202, Ibarlucea, Santa Fe",
      "city": "Ibarlucea",
      "neighborhood": "Centro",
      "category_id": 109,
      "description": "Almacen y verduleria",
      "schedule": "Lun-Dom 8:00-20:00",
      "latitude": -32.881,
      "longitude": -60.781,
      "distance_km": 0.3,
      "verification_level": 1,
      "source": "Directorio local"
    },
    {
      "name": "Consultorios Iberlucea",
      "phone": "(0341) 7704-2784",
      "email": "consultorios.iberlucea@gmail.com",
      "address": "Ibarlucea, Santa Fe",
      "city": "Ibarlucea",
      "neighborhood": "Centro",
      "category_id": 999,
      "description": "Consultorios medicos",
      "schedule": "Lun-Vie 9:00-20:00, Sab 9:00-16:00",
      "latitude": -32.887,
      "longitude": -60.788,
      "distance_km": 0.6,
      "verification_level": 2,
      "source": "Directorio local"
    },
    {
      "name": "Dr. Gustavo Marcelo Borzi - Odontologo",
      "phone": "",
      "email": "",
      "address": "Ibarlucea, Santa Fe",
      "city": "Ibarlucea",
      "neighborhood": "Centro",
      "category_id": 999,
      "description": "Odontologo",
      "schedule": "Consultar disponibilidad",
      "latitude": -32.8833,
      "longitude": -60.7833,
      "distance_km": 0.0,
      "verification_level": 1,
      "source": "Directorio local"
    },
    {
      "name": "Lic. Eric M. Persig - Kinesiologo",
      "phone": "",
      "email": "",
      "address": "Ibarlucea, Santa Fe",
      "city": "Ibarlucea",
      "neighborhood": "Centro",
      "category_id": 999,
      "description": "Kinesiologo y osteopata",
      "schedule": "Consultar disponibilidad",
      "latitude": -32.8833,
      "longitude": -60.7833,
      "distance_km": 0.0,
      "verification_level": 1,
      "source": "Directorio local"
    },
    {
      "name": "Battilana Gabriel Emilio - Kinesiologia",
      "phone": "",
      "email": "",
      "address": "Ibarlucea, Santa Fe",
      "city": "Ibarlucea",
      "neighborhood": "Centro",
      "category_id": 999,
      "description": "Kinesiologo",
      "schedule": "Consultar disponibilidad",
      "latitude": -32.8833,
      "longitude": -60.7833,
      "distance_km": 0.0,
      "verification_level": 1,
      "source": "Directorio local"
    },
    {
      "name": "Focus Gym",
      "phone": "",
      "email": "",
      "address": "Ibarlucea, Santa Fe",
      "city": "Ibarlucea",
      "neighborhood": "Centro",
      "category_id": 999,
      "description": "Gimnasio y fitness",
      "schedule": "Lun-Dom 6:00-22:00",
      "latitude": -32.885,
      "longitude": -60.785,
      "distance_km": 0.2,
      "verification_level": 1,
      "source": "Directorio local"
    },
    {
      "name": "Ibarlucea Fitness Center",
      "phone": "",
      "email": "",
      "address": "25 de Mayo 3875, Ibarlucea, Santa Fe",
      "city": "Ibarlucea",
      "neighborhood": "Centro",
      "category_id": 999,
      "description": "Fitness center",
      "schedule": "Lun-Dom 6:00-22:00",
      "latitude": -32.895,
      "longitude": -60.795,
      "distance_km": 1.7,
      "verification_level": 1,
      "source": "Directorio local"
    },
    {
      "name": "Jardin de Infantes Nro 289 Jacaranda",
      "phone": "",
      "email": "",
      "address": "Ibarlucea, Santa Fe",
      "city": "Ibarlucea",
      "neighborhood": "Centro",
      "category_id": 999,
      "description": "Jardin de infantes publico",
      "schedule": "Lun-Vie horario escolar",
      "latitude": -32.882,
      "longitude": -60.782,
      "distance_km": 0.2,
      "verification_level": 1,
      "source": "Directorio local"
    },
    {
      "name": "Semillitas de Luz Jardin Maternal",
      "phone": "",
      "email": "",
      "address": "Sarmiento, Ibarlucea, Santa Fe",
      "city": "Ibarlucea",
      "neighborhood": "Centro",
      "category_id": 999,
      "description": "Jardin maternal y de infantes",
      "schedule": "Lun-Vie 7:00-19:00",
      "latitude": -32.884,
      "longitude": -60.784,
      "distance_km": 0.1,
      "verification_level": 1,
      "source": "Directorio local"
    },
    {
      "name": "Jacaranda Ibarlucea Jardin",
      "phone": "",
      "email": "",
      "address": "Ibarlucea, Santa Fe",
      "city": "Ibarlucea",
      "neighborhood": "Centro",
      "category_id": 999,
      "description": "Jardin de infantes",
      "schedule": "Lun-Vie horario escolar",
      "latitude": -32.883,
      "longitude": -60.783,
      "distance_km": 0.0,
      "verification_level": 1,
      "source": "Directorio local"
    },
    {
      "name": "Registro Civil Ybarlucea",
      "phone": "",
      "email": "",
      "address": "Ybarlucea, Santa Fe",
      "city": "Ybarlucea",
      "neighborhood": "Centro",
      "category_id": 999,
      "description": "Registro Civil - DNI, partidas",
      "schedule": "Lun-Vie 7:00-13:00",
      "latitude": -32.8835,
      "longitude": -60.7835,
      "distance_km": 0.0,
      "verification_level": 2,
      "source": "Sitio oficial"
    },
    {
      "name": "Estilo Urbano - Arquitectos",
      "phone": "",
      "email": "",
      "address": "Av. Del Rosario y Corrientes, Ibarlucea, Santa Fe",
      "city": "Ibarlucea",
      "neighborhood": "Centro",
      "category_id": 999,
      "description": "Estudio de arquitectura",
      "schedule": "Lun-Vie 9:00-18:00",
      "latitude": -32.882,
      "longitude": -60.782,
      "distance_km": 0.2,
      "verification_level": 1,
      "source": "Directorio local"
    },
    {
      "name": "Campos de Ibarlucea - Salon de Eventos",
      "phone": "",
      "email": "",
      "address": "Ibarlucea, Santa Fe",
      "city": "Ibarlucea",
      "neighborhood": "Centro",
      "category_id": 116,
      "description": "Salon de eventos, casamientos, 15 años",
      "schedule": "Consultar disponibilidad",
      "latitude": -32.89,
      "longitude": -60.79,
      "distance_km": 1.0,
      "verification_level": 1,
      "source": "Directorio local"
    },
    {
      "name": "Más Helados - Iberlucea",
      "phone": "(0341) 316-2030",
      "email": "",
      "address": "Maipú 201-299, Ibarlucea, Santa Fe",
      "city": "Ibarlucea",
      "neighborhood": "Centro",
      "category_id": 114,
      "description": "Heladería",
      "schedule": "Consultar horario",
      "latitude": -32.884,
      "longitude": -60.784,
      "distance_km": 0.1,
      "verification_level": 2,
      "source": "near-place.com"
    },
    {
      "name": "La Buchacreria Ibarlucea",
      "phone": "",
      "email": "",
      "address": "Ibarlucea, Santa Fe",
      "city": "Ibarlucea",
      "neighborhood": "Centro",
      "category_id": 115,
      "description": "Restaurant especializado",
      "schedule": "Consultar horario",
      "latitude": -32.8833,
      "longitude": -60.7833,
      "distance_km": 0.0,
      "verification_level": 1,
      "source": "Directorio local"
    },
    {
      "name": "Estancia Ibarlucea Bar",
      "phone": "",
      "email": "",
      "address": "Cullen y Ugarte, Rosario, Santa Fe",
      "city": "Rosario",
      "neighborhood": "Ibarlucea",
      "category_id": 114,
      "description": "Bar y restaurant",
      "schedule": "Jue-Dom 18:00-02:00",
      "latitude": -32.945,
      "longitude": -60.65,
      "distance_km": 14.2,
      "verification_level": 1,
      "source": "Directorio local"
    },
    {
      "name": "Cooperativa de Energía de Ibarlucea",
      "phone": "",
      "email": "",
      "address": "Ibarlucea, Santa Fe",
      "city": "Ibarlucea",
      "neighborhood": "Centro",
      "category_id": 999,
      "description": "Cooperativa de energía eléctrica",
      "schedule": "Consultar horario",
      "latitude": -32.883,
      "longitude": -60.784,
      "distance_km": 0.1,
      "verification_level": 2,
      "source": "coopibarlucea.com.ar"
    },
    {
      "name": "Supermercados Casagrande",
      "phone": "",
      "email": "",
      "address": "J. M. Ibarlucea 407, Granadero Baigorria, Santa Fe",
      "city": "Granadero Baigorria",
      "neighborhood": "Centro",
      "category_id": 107,
      "description": "Supermercado Casagrande",
      "schedule": "Lun-Dom 8:00-21:00",
      "latitude": -32.858,
      "longitude": -60.725,
      "distance_km": 6.1,
      "verification_level": 2,
      "source": "near-place.com"
    },
    {
      "name": "Supermercado ibarlucea",
      "phone": "",
      "email": "",
      "address": "Ibarlucea 53, Granadero Baigorria, Santa Fe",
      "city": "Granadero Baigorria",
      "neighborhood": "Centro",
      "category_id": 107,
      "description": "Supermercado",
      "schedule": "Consultar horario",
      "latitude": -32.856,
      "longitude": -60.723,
      "distance_km": 6.2,
      "verification_level": 1,
      "source": "near-place.com"
    },
    {
      "name": "Autoservicio Bon Bon",
      "phone": "",
      "email": "",
      "address": "J. M. Ibarlucea 53, Granadero Baigorria, Santa Fe",
      "city": "Granadero Baigorria",
      "neighborhood": "Centro",
      "category_id": 107,
      "description": "Autoservicio",
      "schedule": "Consultar horario",
      "latitude": -32.856,
      "longitude": -60.723,
      "distance_km": 6.2,
      "verification_level": 1,
      "source": "near-place.com"
    },
    {
      "name": "Farmacia Bernaus",
      "phone": "(0341) 471-2708",
      "email": "",
      "address": "J. M. Ibarlucea 92, Granadero Baigorria, Santa Fe",
      "city": "Granadero Baigorria",
      "neighborhood": "Centro",
      "category_id": 112,
      "description": "Farmacia",
      "schedule": "Lun-Vie 09:00-20:00",
      "latitude": -32.857,
      "longitude": -60.724,
      "distance_km": 6.1,
      "verification_level": 2,
      "source": "near-place.com"
    },
    {
      "name": "Ferretería La Tuerca",
      "phone": "",
      "email": "",
      "address": "J. M. Ibarlucea 116, Granadero Baigorria, Santa Fe",
      "city": "Granadero Baigorria",
      "neighborhood": "Centro",
      "category_id": 119,
      "description": "Ferretería",
      "schedule": "Consultar horario",
      "latitude": -32.857,
      "longitude": -60.724,
      "distance_km": 6.1,
      "verification_level": 1,
      "source": "near-place.com"
    },
    {
      "name": "Rotiseria Todo Casero",
      "phone": "(0341) 471-5139",
      "email": "",
      "address": "J. M. Ibarlucea 125, Granadero Baigorria, Santa Fe",
      "city": "Granadero Baigorria",
      "neighborhood": "Centro",
      "category_id": 115,
      "description": "Rotiseria y comida para llevar",
      "schedule": "Mar-Sab 11:15-13:30 / 19:00-22:30",
      "latitude": -32.855,
      "longitude": -60.722,
      "distance_km": 6.5,
      "verification_level": 2,
      "source": "near-place.com"
    },
    {
      "name": "Agencia de Quinielas La Cabala",
      "phone": "(0341) 394-0248",
      "email": "lacabala@quinielas.com.ar",
      "address": "J. M. Ibarlucea 68, Granadero Baigorria, Santa Fe",
      "city": "Granadero Baigorria",
      "neighborhood": "Centro",
      "category_id": 122,
      "description": "Agencia de quinielas y pago fácil",
      "schedule": "Lun-Vie 9:00-18:00",
      "latitude": -32.85,
      "longitude": -60.72,
      "distance_km": 7.0,
      "verification_level": 2,
      "source": "near-place.com"
    },
    {
      "name": "Gestoría del Automotor JBL",
      "phone": "",
      "email": "",
      "address": "J. M. Ibarlucea 65, Granadero Baigorria, Santa Fe",
      "city": "Granadero Baigorria",
      "neighborhood": "Centro",
      "category_id": 999,
      "description": "Gestoría del automotor",
      "schedule": "Consultar horario",
      "latitude": -32.85,
      "longitude": -60.72,
      "distance_km": 7.0,
      "verification_level": 1,
      "source": "near-place.com"
    },
    {
      "name": "MPg Arte Gráfico",
      "phone": "",
      "email": "",
      "address": "J. M. Ibarlucea 71, Granadero Baigorria, Santa Fe",
      "city": "Granadero Baigorria",
      "neighborhood": "Centro",
      "category_id": 999,
      "description": "Arte gráfico",
      "schedule": "Consultar horario",
      "latitude": -32.851,
      "longitude": -60.721,
      "distance_km": 6.8,
      "verification_level": 1,
      "source": "near-place.com"
    },
    {
      "name": "Supermercado Ebe",
      "phone": "(0341) 471-0022",
      "email": "",
      "address": "Rivadavia 333, Granadero Baigorria, Santa Fe",
      "city": "Granadero Baigorria",
      "neighborhood": "Centro",
      "category_id": 107,
      "description": "Supermercado",
      "schedule": "Consultar horario",
      "latitude": -32.854,
      "longitude": -60.719,
      "distance_km": 6.8,
      "verification_level": 2,
      "source": "near-place.com"
    },
    {
      "name": "YB Odontologia",
      "phone": "(0341) 614-7362",
      "email": "",
      "address": "Juan de Ibarlucea 206, Granadero Baigorria, Santa Fe",
      "city": "Granadero Baigorria",
      "neighborhood": "Centro",
      "category_id": 999,
      "description": "Servicios odontologicos",
      "schedule": "Lun-Vie 9:00-18:00",
      "latitude": -32.852,
      "longitude": -60.718,
      "distance_km": 7.0,
      "verification_level": 2,
      "source": "Directorio local"
    },
    {
      "name": "Peluquería y Barbería Pelo Bamboo",
      "phone": "",
      "email": "",
      "address": "J. M. Estrada 159, Granadero Baigorria, Santa Fe",
      "city": "Granadero Baigorria",
      "neighborhood": "Centro",
      "category_id": 103,
      "description": "Peluquería y barbería",
      "schedule": "Consultar horario",
      "latitude": -32.856,
      "longitude": -60.72,
      "distance_km": 6.5,
      "verification_level": 1,
      "source": "Fresha"
    },
    {
      "name": "Black Barber",
      "phone": "",
      "email": "",
      "address": "J. M. Estrada 73, Granadero Baigorria, Santa Fe",
      "city": "Granadero Baigorria",
      "neighborhood": "Centro",
      "category_id": 103,
      "description": "Barbería",
      "schedule": "Consultar horario",
      "latitude": -32.855,
      "longitude": -60.721,
      "distance_km": 6.6,
      "verification_level": 1,
      "source": "Fresha"
    },
    {
      "name": "SF Barber",
      "phone": "",
      "email": "",
      "address": "Av Santa Fe 1251, Granadero Baigorria, Santa Fe",
      "city": "Granadero Baigorria",
      "neighborhood": "Centro",
      "category_id": 103,
      "description": "Barbería",
      "schedule": "Mar-Sab 10:00-20:00",
      "latitude": -32.857,
      "longitude": -60.718,
      "distance_km": 6.8,
      "verification_level": 1,
      "source": "Fresha"
    },
    {
      "name": "Salón de Belleza Analia",
      "phone": "(0341) 471-5418",
      "email": "",
      "address": "Vietti 351, Granadero Baigorria, Santa Fe",
      "city": "Granadero Baigorria",
      "neighborhood": "Centro",
      "category_id": 103,
      "description": "Salón de belleza",
      "schedule": "Consultar horario",
      "latitude": -32.853,
      "longitude": -60.716,
      "distance_km": 7.2,
      "verification_level": 2,
      "source": "Guia Urbana"
    },
    {
      "name": "Alpha - Centro de Estetica Integral y Peluqueria Unisex",
      "phone": "",
      "email": "",
      "address": "Granadero Baigorria, Santa Fe",
      "city": "Granadero Baigorria",
      "neighborhood": "Centro",
      "category_id": 103,
      "description": "Centro de estética y peluquería unisex",
      "schedule": "Consultar horario",
      "latitude": -32.855,
      "longitude": -60.72,
      "distance_km": 6.6,
      "verification_level": 1,
      "source": "Mi Guia Argentina"
    },
    {
      "name": "Silvia Blanco Estilista",
      "phone": "",
      "email": "",
      "address": "Av De La Torre 190, Granadero Baigorria, Santa Fe",
      "city": "Granadero Baigorria",
      "neighborhood": "Centro",
      "category_id": 103,
      "description": "Estilista",
      "schedule": "Consultar horario",
      "latitude": -32.858,
      "longitude": -60.722,
      "distance_km": 6.5,
      "verification_level": 1,
      "source": "Mi Guia Argentina"
    },
    {
      "name": "Peluquería Canina Patas",
      "phone": "(0341) 471-2699",
      "email": "",
      "address": "Calle 2 33, Granadero Baigorria, Santa Fe",
      "city": "Granadero Baigorria",
      "neighborhood": "Centro",
      "category_id": 118,
      "description": "Peluquería canina - Baños y cortes para mascotas",
      "schedule": "Consultar horario",
      "latitude": -32.854,
      "longitude": -60.718,
      "distance_km": 6.9,
      "verification_level": 2,
      "source": "Guia Urbana"
    },
    {
      "name": "La Estación Birreria & Resto Bar",
      "phone": "",
      "email": "",
      "address": "Granadero Baigorria, Santa Fe",
      "city": "Granadero Baigorria",
      "neighborhood": "Centro",
      "category_id": 114,
      "description": "Birrería y restobar",
      "schedule": "Consultar horario",
      "latitude": -32.856,
      "longitude": -60.72,
      "distance_km": 6.5,
      "verification_level": 1,
      "source": "Facebook"
    },
    {
      "name": "Salón Terraza de Baigorria",
      "phone": "",
      "email": "",
      "address": "Av. Andrés Vietti, Granadero Baigorria, Santa Fe",
      "city": "Granadero Baigorria",
      "neighborhood": "Ciudad Deportiva",
      "category_id": 115,
      "description": "Restaurante - Salon de eventos",
      "schedule": "Consultar horario",
      "latitude": -32.86,
      "longitude": -60.725,
      "distance_km": 6.0,
      "verification_level": 1,
      "source": "broccolino.com.ar"
    },
    {
      "name": "Farmacia Vazquez",
      "phone": "(0341) 493-1502",
      "email": "",
      "address": "Elorza 1551, Funes, Santa Fe",
      "city": "Funes",
      "neighborhood": "Centro",
      "category_id": 112,
      "description": "Farmacia",
      "schedule": "Consultar horario",
      "latitude": -32.911,
      "longitude": -60.81,
      "distance_km": 4.5,
      "verification_level": 2,
      "source": "Guia Urbana"
    },
    {
      "name": "Farmacias de Turno Funes",
      "phone": "",
      "email": "",
      "address": "Funes, Santa Fe",
      "city": "Funes",
      "neighborhood": "Centro",
      "category_id": 112,
      "description": "Farmacias de turno - Ver cronograma oficial",
      "schedule": "24 horas (por turno)",
      "latitude": -32.912,
      "longitude": -60.811,
      "distance_km": 4.6,
      "verification_level": 2,
      "source": "enfunes.com.ar"
    },
    {
      "name": "Mayorista Funes",
      "phone": "(0341) 281-0289",
      "email": "",
      "address": "San José 1326-1400, Funes, Santa Fe",
      "city": "Funes",
      "neighborhood": "Centro",
      "category_id": 107,
      "description": "Mayorista",
      "schedule": "Consultar horario",
      "latitude": -32.913,
      "longitude": -60.812,
      "distance_km": 4.7,
      "verification_level": 2,
      "source": "near-place.com"
    },
    {
      "name": "Dar Supermarket",
      "phone": "(0341) 493-7347",
      "email": "",
      "address": "Avenida Santa Fe 1865, Funes, Santa Fe",
      "city": "Funes",
      "neighborhood": "Centro",
      "category_id": 107,
      "description": "Supermercado",
      "schedule": "Consultar horario",
      "latitude": -32.917683,
      "longitude": -60.81335,
      "distance_km": 5.0,
      "verification_level": 2,
      "source": "near-place.com"
    },
    {
      "name": "Cascanueces",
      "phone": "(0341) 602-0542",
      "email": "",
      "address": "Avenida Santa Fe 1360, Funes, Santa Fe",
      "city": "Funes",
      "neighborhood": "Centro",
      "category_id": 107,
      "description": "Supermercado",
      "schedule": "Consultar horario",
      "latitude": -32.914,
      "longitude": -60.812,
      "distance_km": 4.8,
      "verification_level": 2,
      "source": "near-place.com"
    },
    {
      "name": "Supermercado Buenaventura",
      "phone": "",
      "email": "",
      "address": "General Paz 1750, Funes, Santa Fe",
      "city": "Funes",
      "neighborhood": "Centro",
      "category_id": 107,
      "description": "Supermercado",
      "schedule": "Consultar horario",
      "latitude": -32.915,
      "longitude": -60.81,
      "distance_km": 4.9,
      "verification_level": 1,
      "source": "near-place.com"
    },
    {
      "name": "Alimentos Mamina",
      "phone": "(0341) 493-0993",
      "email": "",
      "address": "Juan Elorza, Funes, Santa Fe",
      "city": "Funes",
      "neighborhood": "Centro",
      "category_id": 109,
      "description": "Alimentos",
      "schedule": "Consultar horario",
      "latitude": -32.912,
      "longitude": -60.811,
      "distance_km": 4.6,
      "verification_level": 2,
      "source": "near-place.com"
    },
    {
      "name": "El Chaqueño Autoservicio",
      "phone": "",
      "email": "",
      "address": "Av Santa Fe 1537, Funes, Santa Fe",
      "city": "Funes",
      "neighborhood": "Centro",
      "category_id": 107,
      "description": "Autoservicio",
      "schedule": "Consultar horario",
      "latitude": -32.914,
      "longitude": -60.812,
      "distance_km": 4.8,
      "verification_level": 1,
      "source": "Mi Guia Argentina"
    },
    {
      "name": "Autoservicio Julipech",
      "phone": "",
      "email": "",
      "address": "San Martin 304, Funes, Santa Fe",
      "city": "Funes",
      "neighborhood": "Centro",
      "category_id": 107,
      "description": "Autoservicio",
      "schedule": "Consultar horario",
      "latitude": -32.91,
      "longitude": -60.808,
      "distance_km": 4.2,
      "verification_level": 1,
      "source": "Mi Guia Argentina"
    },
    {
      "name": "Autoservicio Arlequin",
      "phone": "",
      "email": "",
      "address": "Funes, Santa Fe",
      "city": "Funes",
      "neighborhood": "Centro",
      "category_id": 107,
      "description": "Autoservicio",
      "schedule": "Consultar horario",
      "latitude": -32.911,
      "longitude": -60.809,
      "distance_km": 4.3,
      "verification_level": 1,
      "source": "Mi Guia Argentina"
    },
    {
      "name": "Hackers",
      "phone": "",
      "email": "",
      "address": "Av F Aérea 1810, Funes, Santa Fe",
      "city": "Funes",
      "neighborhood": "Aeropuerto",
      "category_id": 107,
      "description": "Autoservicio",
      "schedule": "Consultar horario",
      "latitude": -32.92,
      "longitude": -60.82,
      "distance_km": 5.5,
      "verification_level": 1,
      "source": "Mi Guia Argentina"
    },
    {
      "name": "Funes Mall",
      "phone": "",
      "email": "",
      "address": "Funes, Santa Fe",
      "city": "Funes",
      "neighborhood": "Centro",
      "category_id": 999,
      "description": "Centro comercial",
      "schedule": "Consultar horario",
      "latitude": -32.912,
      "longitude": -60.81,
      "distance_km": 4.5,
      "verification_level": 2,
      "source": "La Guia de Funes"
    },
    {
      "name": "Supermercados Dia Funes",
      "phone": "",
      "email": "",
      "address": "Funes, Santa Fe",
      "city": "Funes",
      "neighborhood": "Centro",
      "category_id": 107,
      "description": "Supermercado Dia",
      "schedule": "Consultar horario",
      "latitude": -32.911,
      "longitude": -60.809,
      "distance_km": 4.4,
      "verification_level": 2,
      "source": "BuscArgentina"
    },
    {
      "name": "Municipalidad de Funes",
      "phone": "(0341) 493-1234",
      "email": "",
      "address": "Santa Fe 1689, Funes, Santa Fe",
      "city": "Funes",
      "neighborhood": "Centro",
      "category_id": 999,
      "description": "Municipalidad",
      "schedule": "Lun-Vie 8:00-14:00",
      "latitude": -32.911,
      "longitude": -60.81,
      "distance_km": 4.3,
      "verification_level": 3,
      "source": "Red Argentina"
    },
    {
      "name": "Municipalidad de Granadero Baigorria",
      "phone": "(0341) 471-0200",
      "email": "",
      "address": "Chacabuco 1050, Granadero Baigorria, Santa Fe",
      "city": "Granadero Baigorria",
      "neighborhood": "Centro",
      "category_id": 999,
      "description": "Municipalidad",
      "schedule": "Lun-Vie 8:00-14:00",
      "latitude": -32.852,
      "longitude": -60.72,
      "distance_km": 6.8,
      "verification_level": 3,
      "source": "Red Argentina"
    },
    {
      "name": "Concejo Municipal Granadero Baigorria",
      "phone": "(0341) 471-3232",
      "email": "",
      "address": "Rivadavia 282, Granadero Baigorria, Santa Fe",
      "city": "Granadero Baigorria",
      "neighborhood": "Centro",
      "category_id": 999,
      "description": "Concejo Municipal",
      "schedule": "Consultar horario",
      "latitude": -32.853,
      "longitude": -60.719,
      "distance_km": 6.9,
      "verification_level": 2,
      "source": "Red Argentina"
    },
    {
      "name": "Sub Comisaría Ybarlucea",
      "phone": "",
      "email": "",
      "address": "Ybarlucea, Santa Fe",
      "city": "Ybarlucea",
      "neighborhood": "Centro",
      "category_id": 999,
      "description": "Policía",
      "schedule": "24 horas",
      "latitude": -32.883,
      "longitude": -60.784,
      "distance_km": 0.1,
      "verification_level": 2,
      "source": "Telefonos utiles"
    },
    {
      "name": "SAMCo Ibarlucea",
      "phone": "",
      "email": "",
      "address": "Ibarlucea, Santa Fe",
      "city": "Ibarlucea",
      "neighborhood": "Centro",
      "category_id": 999,
      "description": "Hospital / Centro de salud",
      "schedule": "24 horas",
      "latitude": -32.884,
      "longitude": -60.785,
      "distance_km": 0.2,
      "verification_level": 2,
      "source": "Telefonos utiles"
    },
    {
      "name": "Bomberos Voluntarios Ybarlucea",
      "phone": "100",
      "email": "",
      "address": "Ybarlucea, Santa Fe",
      "city": "Ybarlucea",
      "neighborhood": "Centro",
      "category_id": 999,
      "description": "Bomberos",
      "schedule": "24 horas",
      "latitude": -32.882,
      "longitude": -60.783,
      "distance_km": 0.1,
      "verification_level": 3,
      "source": "Telefonos utiles"
    },
    {
      "name": "Emergencias",
      "phone": "911",
      "email": "",
      "address": "Zona Ybarlucea",
      "city": "Ybarlucea",
      "neighborhood": "Centro",
      "category_id": 999,
      "description": "Emergencias generales",
      "schedule": "24 horas",
      "latitude": -32.8833,
      "longitude": -60.7833,
      "distance_km": 0.0,
      "verification_level": 3,
      "source": "Telefonos utiles"
    },
    {
      "name": "Emergencias de Salud",
      "phone": "107",
      "email": "",
      "address": "Zona Ybarlucea",
      "city": "Ybarlucea",
      "neighborhood": "Centro",
      "category_id": 999,
      "description": "Ambulancia",
      "schedule": "24 horas",
      "latitude": -32.8833,
      "longitude": -60.7833,
      "distance_km": 0.0,
      "verification_level": 3,
      "source": "Telefonos utiles"
    },
    {
      "name": "Violencia de Género",
      "phone": "144",
      "email": "",
      "address": "Zona Ybarlucea",
      "city": "Ybarlucea",
      "neighborhood": "Centro",
      "category_id": 999,
      "description": "Línea de ayuda",
      "schedule": "24 horas",
      "latitude": -32.8833,
      "longitude": -60.7833,
      "distance_km": 0.0,
      "verification_level": 3,
      "source": "Telefonos utiles"
    },
    {
      "name": "Indaco Producciones",
      "phone": "(0341) 454-0700",
      "email": "",
      "address": "Bv. Rondeau 692, Rosario, Santa Fe",
      "city": "Rosario",
      "neighborhood": "Centro",
      "category_id": 999,
      "description": "Proyecto y dirección técnica de obras, gestión municipal, planos",
      "schedule": "Consultar horario",
      "latitude": -32.95,
      "longitude": -60.65,
      "distance_km": 16.0,
      "verification_level": 2,
      "source": "Red Argentina"
    }
  ]
}
